[
  {
    "city": "Mashhad",
    "country": "Iran",
    "population": 2307254,
    "latitude": 36.297,
    "longitude": 59.6062,
    "region": "Southern Asia",
    "continent": "Asia"
  },
  {
    "city": "Esfahan",
    "country": "Iran",
    "population": 1547241,
    "latitude": 32.657218,
    "longitude": 51.677608,
    "region": "Southern Asia",
    "continent": "Asia"
  },
  {
    "city": "Karaj",
    "country": "Iran",
    "population": 1448996,
    "latitude": 35.8355,
    "longitude": 51.0103,
    "region": "Southern Asia",
    "continent": "Asia"
  },
  {
    "city": "Tabriz",
    "country": "Iran",
    "population": 1424701,
    "latitude": 38.08,
    "longitude": 46.2919,
    "region": "Southern Asia",
    "continent": "Asia"
  },
  {
    "city": "Shiraz",
    "country": "Iran",
    "population": 1249972,
    "latitude": 29.6036,
    "longitude": 52.5388,
    "region": "Southern Asia",
    "continent": "Asia"
  },
  {
    "city": "Qom",
    "country": "Iran",
    "population": 1011103,
    "latitude": 34.6401,
    "longitude": 50.8764,
    "region": "Southern Asia",
    "continent": "Asia"
  },
  {
    "city": "Ahvaz",
    "country": "Iran",
    "population": 854980,
    "latitude": 31.3203,
    "longitude": 48.6693,
    "region": "Southern Asia",
    "continent": "Asia"
  },
  {
    "city": "Kermanshah",
    "country": "Iran",
    "population": 766742,
    "latitude": 34.314167,
    "longitude": 47.065,
    "region": "Southern Asia",
    "continent": "Asia"
  },
  {
    "city": "Orumiyeh",
    "country": "Iran",
    "population": 602443,
    "latitude": 37.5553,
    "longitude": 45.0724,
    "region": "Southern Asia",
    "continent": "Asia"
  },
  {
    "city": "Rasht",
    "country": "Iran",
    "population": 594619,
    "latitude": 37.280769,
    "longitude": 49.58319,
    "region": "Southern Asia",
    "continent": "Asia"
  },
  {
    "city": "Kerman",
    "country": "Iran",
    "population": 577547,
    "latitude": 30.283209,
    "longitude": 57.07879,
    "region": "Southern Asia",
    "continent": "Asia"
  },
  {
    "city": "Hamadan",
    "country": "Iran",
    "population": 514134,
    "latitude": 34.799216,
    "longitude": 48.514556,
    "region": "Southern Asia",
    "continent": "Asia"
  },
  {
    "city": "Arak",
    "country": "Iran",
    "population": 503673,
    "latitude": 34.091741,
    "longitude": 49.689164,
    "region": "Southern Asia",
    "continent": "Asia"
  },
  {
    "city": "Yazd",
    "country": "Iran",
    "population": 477926,
    "latitude": 31.897222,
    "longitude": 54.3675,
    "region": "Southern Asia",
    "continent": "Asia"
  },
  {
    "city": "Ardabil",
    "country": "Iran",
    "population": 410773,
    "latitude": 38.2498,
    "longitude": 48.2933,
    "region": "Southern Asia",
    "continent": "Asia"
  },
  {
    "city": "Abadan",
    "country": "Iran",
    "population": 370220,
    "latitude": 30.3392,
    "longitude": 48.3043,
    "region": "Southern Asia",
    "continent": "Asia"
  },
  {
    "city": "Zanjan",
    "country": "Iran",
    "population": 357489,
    "latitude": 36.6736,
    "longitude": 48.4787,
    "region": "Southern Asia",
    "continent": "Asia"
  },
  {
    "city": "Sanandaj",
    "country": "Iran",
    "population": 349200,
    "latitude": 35.3144,
    "longitude": 46.9923,
    "region": "Southern Asia",
    "continent": "Asia"
  },
  {
    "city": "Qazvin",
    "country": "Iran",
    "population": 333652,
    "latitude": 36.2797,
    "longitude": 50.0049,
    "region": "Southern Asia",
    "continent": "Asia"
  },
  {
    "city": "Khorramshahr",
    "country": "Iran",
    "population": 331254,
    "latitude": 30.4397,
    "longitude": 48.1664,
    "region": "Southern Asia",
    "continent": "Asia"
  },
  {
    "city": "Khorramabad",
    "country": "Iran",
    "population": 329847,
    "latitude": 33.487778,
    "longitude": 48.355833,
    "region": "Southern Asia",
    "continent": "Asia"
  },
  {
    "city": "Eslamshahr",
    "country": "Iran",
    "population": 318855,
    "latitude": 35.5605,
    "longitude": 51.2346,
    "region": "Southern Asia",
    "continent": "Asia"
  },
  {
    "city": "Kashan",
    "country": "Iran",
    "population": 301107,
    "latitude": 33.9888,
    "longitude": 51.4773,
    "region": "Southern Asia",
    "continent": "Asia"
  },
  {
    "city": "Khomeynishahr",
    "country": "Iran",
    "population": 277355,
    "latitude": 32.700175,
    "longitude": 51.521134,
    "region": "Southern Asia",
    "continent": "Asia"
  },
  {
    "city": "Sari",
    "country": "Iran",
    "population": 255416,
    "latitude": 36.563319,
    "longitude": 53.060087,
    "region": "Southern Asia",
    "continent": "Asia"
  },
  {
    "city": "Borujerd",
    "country": "Iran",
    "population": 251976,
    "latitude": 33.8973,
    "longitude": 48.7516,
    "region": "Southern Asia",
    "continent": "Asia"
  },
  {
    "city": "Qarchak",
    "country": "Iran",
    "population": 251857,
    "latitude": 35.439444,
    "longitude": 51.568889,
    "region": "Southern Asia",
    "continent": "Asia"
  },
  {
    "city": "Gorgan",
    "country": "Iran",
    "population": 244955,
    "latitude": 36.838659,
    "longitude": 54.434749,
    "region": "Southern Asia",
    "continent": "Asia"
  },
  {
    "city": "Sabzevar",
    "country": "Iran",
    "population": 226208,
    "latitude": 36.212598,
    "longitude": 57.681906,
    "region": "Southern Asia",
    "continent": "Asia"
  },
  {
    "city": "Neyshabur",
    "country": "Iran",
    "population": 220954,
    "latitude": 36.213288,
    "longitude": 58.795755,
    "region": "Southern Asia",
    "continent": "Asia"
  },
  {
    "city": "Bukan",
    "country": "Iran",
    "population": 213349,
    "latitude": 36.521,
    "longitude": 46.2089,
    "region": "Southern Asia",
    "continent": "Asia"
  },
  {
    "city": "Dezful",
    "country": "Iran",
    "population": 212367,
    "latitude": 32.3825,
    "longitude": 48.402,
    "region": "Southern Asia",
    "continent": "Asia"
  },
  {
    "city": "Sirjan",
    "country": "Iran",
    "population": 207661,
    "latitude": 29.452,
    "longitude": 55.6814,
    "region": "Southern Asia",
    "continent": "Asia"
  },
  {
    "city": "Babol",
    "country": "Iran",
    "population": 202812,
    "latitude": 36.551321,
    "longitude": 52.678951,
    "region": "Southern Asia",
    "continent": "Asia"
  },
  {
    "city": "Amol",
    "country": "Iran",
    "population": 199398,
    "latitude": 36.469612,
    "longitude": 52.350724,
    "region": "Southern Asia",
    "continent": "Asia"
  },
  {
    "city": "Birjand",
    "country": "Iran",
    "population": 197004,
    "latitude": 32.866277,
    "longitude": 59.221139,
    "region": "Southern Asia",
    "continent": "Asia"
  },
  {
    "city": "Bojnurd",
    "country": "Iran",
    "population": 192062,
    "latitude": 37.47473,
    "longitude": 57.329031,
    "region": "Southern Asia",
    "continent": "Asia"
  },
  {
    "city": "Varamin",
    "country": "Iran",
    "population": 179620,
    "latitude": 35.3242,
    "longitude": 51.6457,
    "region": "Southern Asia",
    "continent": "Asia"
  },
  {
    "city": "Saveh",
    "country": "Iran",
    "population": 175545,
    "latitude": 35.0213,
    "longitude": 50.3566,
    "region": "Southern Asia",
    "continent": "Asia"
  },
  {
    "city": "Khoy",
    "country": "Iran",
    "population": 175386,
    "latitude": 38.5503,
    "longitude": 44.9521,
    "region": "Southern Asia",
    "continent": "Asia"
  },
  {
    "city": "Maragheh",
    "country": "Iran",
    "population": 168290,
    "latitude": 37.3893,
    "longitude": 46.2376,
    "region": "Southern Asia",
    "continent": "Asia"
  },
  {
    "city": "Mahabad",
    "country": "Iran",
    "population": 162448,
    "latitude": 36.7499,
    "longitude": 45.7229,
    "region": "Southern Asia",
    "continent": "Asia"
  },
  {
    "city": "Bushehr",
    "country": "Iran",
    "population": 157778,
    "latitude": 28.9684,
    "longitude": 50.8385,
    "region": "Southern Asia",
    "continent": "Asia"
  },
  {
    "city": "Saqqez",
    "country": "Iran",
    "population": 151249,
    "latitude": 36.2463,
    "longitude": 46.2665,
    "region": "Southern Asia",
    "continent": "Asia"
  },
  {
    "city": "Rafsanjan",
    "country": "Iran",
    "population": 147691,
    "latitude": 30.4067,
    "longitude": 55.9939,
    "region": "Southern Asia",
    "continent": "Asia"
  },
  {
    "city": "Ilam",
    "country": "Iran",
    "population": 140951,
    "latitude": 33.6374,
    "longitude": 46.4227,
    "region": "Southern Asia",
    "continent": "Asia"
  },
  {
    "city": "Miandoab",
    "country": "Iran",
    "population": 132830,
    "latitude": 36.9694,
    "longitude": 46.1027,
    "region": "Southern Asia",
    "continent": "Asia"
  },
  {
    "city": "Shahrud",
    "country": "Iran",
    "population": 131895,
    "latitude": 36.418189,
    "longitude": 54.976282,
    "region": "Southern Asia",
    "continent": "Asia"
  },
  {
    "city": "Gonbad-e Qabus",
    "country": "Iran",
    "population": 131427,
    "latitude": 37.250042,
    "longitude": 55.167208,
    "region": "Southern Asia",
    "continent": "Asia"
  },
  {
    "city": "Iranshahr",
    "country": "Iran",
    "population": 131242,
    "latitude": 27.202446,
    "longitude": 60.684758,
    "region": "Southern Asia",
    "continent": "Asia"
  },
  {
    "city": "Marv Dasht",
    "country": "Iran",
    "population": 129483,
    "latitude": 29.8742,
    "longitude": 52.8025,
    "region": "Southern Asia",
    "continent": "Asia"
  },
  {
    "city": "Shahr-e Kord",
    "country": "Iran",
    "population": 129167,
    "latitude": 32.325556,
    "longitude": 50.864444,
    "region": "Southern Asia",
    "continent": "Asia"
  },
  {
    "city": "Semnan",
    "country": "Iran",
    "population": 124831,
    "latitude": 35.572914,
    "longitude": 53.397139,
    "region": "Southern Asia",
    "continent": "Asia"
  },
  {
    "city": "Marand",
    "country": "Iran",
    "population": 124201,
    "latitude": 38.4329,
    "longitude": 45.7749,
    "region": "Southern Asia",
    "continent": "Asia"
  },
  {
    "city": "Zabol",
    "country": "Iran",
    "population": 121999,
    "latitude": 31.0287,
    "longitude": 61.5012,
    "region": "Southern Asia",
    "continent": "Asia"
  },
  {
    "city": "Do Rud",
    "country": "Iran",
    "population": 114404,
    "latitude": 33.5,
    "longitude": 49.0571,
    "region": "Southern Asia",
    "continent": "Asia"
  },
  {
    "city": "Quchan",
    "country": "Iran",
    "population": 111765,
    "latitude": 37.105997,
    "longitude": 58.509547,
    "region": "Southern Asia",
    "continent": "Asia"
  },
  {
    "city": "Jiroft",
    "country": "Iran",
    "population": 111560,
    "latitude": 28.6535,
    "longitude": 57.7646,
    "region": "Southern Asia",
    "continent": "Asia"
  },
  {
    "city": "Masjed-e Soleyman",
    "country": "Iran",
    "population": 111522,
    "latitude": 31.9364,
    "longitude": 49.3039,
    "region": "Southern Asia",
    "continent": "Asia"
  },
  {
    "city": "Marivan",
    "country": "Iran",
    "population": 111495,
    "latitude": 35.527,
    "longitude": 46.1763,
    "region": "Southern Asia",
    "continent": "Asia"
  },
  {
    "city": "Bandar-e Anzali",
    "country": "Iran",
    "population": 110834,
    "latitude": 37.4727,
    "longitude": 49.4622,
    "region": "Southern Asia",
    "continent": "Asia"
  },
  {
    "city": "Jahrom",
    "country": "Iran",
    "population": 107910,
    "latitude": 28.5024,
    "longitude": 53.5534,
    "region": "Southern Asia",
    "continent": "Asia"
  },
  {
    "city": "Baneh",
    "country": "Iran",
    "population": 104939,
    "latitude": 35.9975,
    "longitude": 45.8853,
    "region": "Southern Asia",
    "continent": "Asia"
  },
  {
    "city": "Parsabad",
    "country": "Iran",
    "population": 101715,
    "latitude": 39.6482,
    "longitude": 47.9174,
    "region": "Southern Asia",
    "continent": "Asia"
  },
  {
    "city": "Shahreza",
    "country": "Iran",
    "population": 100806,
    "latitude": 32.0089,
    "longitude": 51.8668,
    "region": "Southern Asia",
    "continent": "Asia"
  },
  {
    "city": "Kuhdasht",
    "country": "Iran",
    "population": 100216,
    "latitude": 33.535,
    "longitude": 47.6061,
    "region": "Southern Asia",
    "continent": "Asia"
  },
  {
    "city": "Bam",
    "country": "Iran",
    "population": 99276,
    "latitude": 29.106,
    "longitude": 58.357,
    "region": "Southern Asia",
    "continent": "Asia"
  },
  {
    "city": "Shirvan",
    "country": "Iran",
    "population": 98688,
    "latitude": 37.396693,
    "longitude": 57.929517,
    "region": "Southern Asia",
    "continent": "Asia"
  },
  {
    "city": "Fasa",
    "country": "Iran",
    "population": 98068,
    "latitude": 28.9383,
    "longitude": 53.6482,
    "region": "Southern Asia",
    "continent": "Asia"
  },
  {
    "city": "Do Gonbadan",
    "country": "Iran",
    "population": 94646,
    "latitude": 30.3586,
    "longitude": 50.7981,
    "region": "Southern Asia",
    "continent": "Asia"
  },
  {
    "city": "Kazerun",
    "country": "Iran",
    "population": 94518,
    "latitude": 29.619491,
    "longitude": 51.654147,
    "region": "Southern Asia",
    "continent": "Asia"
  },
  {
    "city": "Ahar",
    "country": "Iran",
    "population": 94355,
    "latitude": 38.4774,
    "longitude": 47.0699,
    "region": "Southern Asia",
    "continent": "Asia"
  },
  {
    "city": "Behshahr",
    "country": "Iran",
    "population": 93508,
    "latitude": 36.692347,
    "longitude": 53.552617,
    "region": "Southern Asia",
    "continent": "Asia"
  },
  {
    "city": "Aligudarz",
    "country": "Iran",
    "population": 91048,
    "latitude": 33.400633,
    "longitude": 49.694901,
    "region": "Southern Asia",
    "continent": "Asia"
  },
  {
    "city": "Qorveh",
    "country": "Iran",
    "population": 87960,
    "latitude": 35.1664,
    "longitude": 47.8045,
    "region": "Southern Asia",
    "continent": "Asia"
  },
  {
    "city": "Borazjan",
    "country": "Iran",
    "population": 86067,
    "latitude": 29.2666,
    "longitude": 51.2159,
    "region": "Southern Asia",
    "continent": "Asia"
  },
  {
    "city": "Salmas",
    "country": "Iran",
    "population": 81614,
    "latitude": 38.1973,
    "longitude": 44.7653,
    "region": "Southern Asia",
    "continent": "Asia"
  },
  {
    "city": "Behbahan",
    "country": "Iran",
    "population": 79335,
    "latitude": 30.5959,
    "longitude": 50.2417,
    "region": "Southern Asia",
    "continent": "Asia"
  },
  {
    "city": "Shushtar",
    "country": "Iran",
    "population": 77515,
    "latitude": 32.0455,
    "longitude": 48.8567,
    "region": "Southern Asia",
    "continent": "Asia"
  },
  {
    "city": "Khomeyn",
    "country": "Iran",
    "population": 77431,
    "latitude": 33.642255,
    "longitude": 50.078898,
    "region": "Southern Asia",
    "continent": "Asia"
  },
  {
    "city": "Nahavand",
    "country": "Iran",
    "population": 76258,
    "latitude": 34.1885,
    "longitude": 48.377,
    "region": "Southern Asia",
    "continent": "Asia"
  },
  {
    "city": "Alvand",
    "country": "Iran",
    "population": 74899,
    "latitude": 36.3187,
    "longitude": 49.1678,
    "region": "Southern Asia",
    "continent": "Asia"
  },
  {
    "city": "Naqadeh",
    "country": "Iran",
    "population": 73535,
    "latitude": 36.9553,
    "longitude": 45.388,
    "region": "Southern Asia",
    "continent": "Asia"
  },
  {
    "city": "Lar",
    "country": "Iran",
    "population": 71744,
    "latitude": 27.6489,
    "longitude": 54.316,
    "region": "Southern Asia",
    "continent": "Asia"
  },
  {
    "city": "Takestan",
    "country": "Iran",
    "population": 71504,
    "latitude": 36.0696,
    "longitude": 49.6959,
    "region": "Southern Asia",
    "continent": "Asia"
  },
  {
    "city": "Minab",
    "country": "Iran",
    "population": 70796,
    "latitude": 27.1467,
    "longitude": 57.0801,
    "region": "Southern Asia",
    "continent": "Asia"
  },
  {
    "city": "Abhar",
    "country": "Iran",
    "population": 69894,
    "latitude": 36.1468,
    "longitude": 49.218,
    "region": "Southern Asia",
    "continent": "Asia"
  },
  {
    "city": "Chalus",
    "country": "Iran",
    "population": 69644,
    "latitude": 36.654996,
    "longitude": 51.420397,
    "region": "Southern Asia",
    "continent": "Asia"
  },
  {
    "city": "Khash",
    "country": "Iran",
    "population": 69608,
    "latitude": 28.221072,
    "longitude": 61.215819,
    "region": "Southern Asia",
    "continent": "Asia"
  },
  {
    "city": "Langarud",
    "country": "Iran",
    "population": 68153,
    "latitude": 37.197006,
    "longitude": 50.153508,
    "region": "Southern Asia",
    "continent": "Asia"
  },
  {
    "city": "Damghan",
    "country": "Iran",
    "population": 67698,
    "latitude": 36.1683,
    "longitude": 54.348,
    "region": "Southern Asia",
    "continent": "Asia"
  },
  {
    "city": "Lahijan",
    "country": "Iran",
    "population": 64959,
    "latitude": 37.207318,
    "longitude": 50.003971,
    "region": "Southern Asia",
    "continent": "Asia"
  },
  {
    "city": "Darab",
    "country": "Iran",
    "population": 63324,
    "latitude": 28.751944,
    "longitude": 54.544444,
    "region": "Southern Asia",
    "continent": "Asia"
  },
  {
    "city": "Robat Karim",
    "country": "Iran",
    "population": 62759,
    "latitude": 35.4846,
    "longitude": 51.0829,
    "region": "Southern Asia",
    "continent": "Asia"
  },
  {
    "city": "Kamyaran",
    "country": "Iran",
    "population": 61647,
    "latitude": 34.7956,
    "longitude": 46.9355,
    "region": "Southern Asia",
    "continent": "Asia"
  },
  {
    "city": "Piranshahr",
    "country": "Iran",
    "population": 61420,
    "latitude": 36.701,
    "longitude": 45.1413,
    "region": "Southern Asia",
    "continent": "Asia"
  },
  {
    "city": "Esfarayen",
    "country": "Iran",
    "population": 59685,
    "latitude": 37.076448,
    "longitude": 57.510086,
    "region": "Southern Asia",
    "continent": "Asia"
  },
  {
    "city": "Zarand",
    "country": "Iran",
    "population": 58987,
    "latitude": 30.812709,
    "longitude": 56.563993,
    "region": "Southern Asia",
    "continent": "Asia"
  },
  {
    "city": "Torbat-e Jam",
    "country": "Iran",
    "population": 58935,
    "latitude": 35.244,
    "longitude": 60.6225,
    "region": "Southern Asia",
    "continent": "Asia"
  },
  {
    "city": "Shahriyar",
    "country": "Iran",
    "population": 58855,
    "latitude": 35.6596,
    "longitude": 51.0593,
    "region": "Southern Asia",
    "continent": "Asia"
  },
  {
    "city": "Ardakan",
    "country": "Iran",
    "population": 58840,
    "latitude": 32.310011,
    "longitude": 54.017474,
    "region": "Southern Asia",
    "continent": "Asia"
  },
  {
    "city": "Harsin",
    "country": "Iran",
    "population": 57652,
    "latitude": 34.2721,
    "longitude": 47.5861,
    "region": "Southern Asia",
    "continent": "Asia"
  },
  {
    "city": "Pakdasht",
    "country": "Iran",
    "population": 57416,
    "latitude": 35.4816,
    "longitude": 51.6802,
    "region": "Southern Asia",
    "continent": "Asia"
  },
  {
    "city": "Hashtgerd",
    "country": "Iran",
    "population": 57128,
    "latitude": 35.962,
    "longitude": 50.6799,
    "region": "Southern Asia",
    "continent": "Asia"
  },
  {
    "city": "Malard",
    "country": "Iran",
    "population": 56790,
    "latitude": 35.6659,
    "longitude": 50.9767,
    "region": "Southern Asia",
    "continent": "Asia"
  },
  {
    "city": "Abyek",
    "country": "Iran",
    "population": 55132,
    "latitude": 36.03993,
    "longitude": 50.531015,
    "region": "Southern Asia",
    "continent": "Asia"
  },
  {
    "city": "Bijar",
    "country": "Iran",
    "population": 53875,
    "latitude": 35.8727,
    "longitude": 47.6029,
    "region": "Southern Asia",
    "continent": "Asia"
  },
  {
    "city": "Pishva",
    "country": "Iran",
    "population": 53861,
    "latitude": 35.308,
    "longitude": 51.7267,
    "region": "Southern Asia",
    "continent": "Asia"
  },
  {
    "city": "Kangavar",
    "country": "Iran",
    "population": 53418,
    "latitude": 34.5043,
    "longitude": 47.9653,
    "region": "Southern Asia",
    "continent": "Asia"
  },
  {
    "city": "Borujan",
    "country": "Iran",
    "population": 52660,
    "latitude": 31.965232,
    "longitude": 51.287295,
    "region": "Southern Asia",
    "continent": "Asia"
  },
  {
    "city": "Shahr-e Babak",
    "country": "Iran",
    "population": 52413,
    "latitude": 30.1165,
    "longitude": 55.1186,
    "region": "Southern Asia",
    "continent": "Asia"
  },
  {
    "city": "Shush",
    "country": "Iran",
    "population": 52290,
    "latitude": 32.1942,
    "longitude": 48.2436,
    "region": "Southern Asia",
    "continent": "Asia"
  },
  {
    "city": "Meybod",
    "country": "Iran",
    "population": 51879,
    "latitude": 32.250137,
    "longitude": 54.016585,
    "region": "Southern Asia",
    "continent": "Asia"
  },
  {
    "city": "Takab",
    "country": "Iran",
    "population": 51546,
    "latitude": 36.4009,
    "longitude": 47.1133,
    "region": "Southern Asia",
    "continent": "Asia"
  },
  {
    "city": "Khalkhal",
    "country": "Iran",
    "population": 51028,
    "latitude": 37.6189,
    "longitude": 48.5258,
    "region": "Southern Asia",
    "continent": "Asia"
  },
  {
    "city": "Oshnaviyeh",
    "country": "Iran",
    "population": 50692,
    "latitude": 37.0397,
    "longitude": 45.0983,
    "region": "Southern Asia",
    "continent": "Asia"
  },
  {
    "city": "Tabas",
    "country": "Iran",
    "population": 49999,
    "latitude": 33.595856,
    "longitude": 56.924368,
    "region": "Southern Asia",
    "continent": "Asia"
  },
  {
    "city": "Falavarjan",
    "country": "Iran",
    "population": 49847,
    "latitude": 32.555301,
    "longitude": 51.509735,
    "region": "Southern Asia",
    "continent": "Asia"
  },
  {
    "city": "Garmsar",
    "country": "Iran",
    "population": 49494,
    "latitude": 35.218242,
    "longitude": 52.340849,
    "region": "Southern Asia",
    "continent": "Asia"
  },
  {
    "city": "Rehnan",
    "country": "Iran",
    "population": 49147,
    "latitude": 32.684617,
    "longitude": 51.60129,
    "region": "Southern Asia",
    "continent": "Asia"
  },
  {
    "city": "Neka",
    "country": "Iran",
    "population": 48851,
    "latitude": 36.650786,
    "longitude": 53.299048,
    "region": "Southern Asia",
    "continent": "Asia"
  },
  {
    "city": "Bandar-e Torkaman",
    "country": "Iran",
    "population": 48658,
    "latitude": 36.90165,
    "longitude": 54.070884,
    "region": "Southern Asia",
    "continent": "Asia"
  },
  {
    "city": "Tuysarkan",
    "country": "Iran",
    "population": 48165,
    "latitude": 34.5481,
    "longitude": 48.4469,
    "region": "Southern Asia",
    "continent": "Asia"
  },
  {
    "city": "Azad Shahr",
    "country": "Iran",
    "population": 47594,
    "latitude": 37.087009,
    "longitude": 55.173973,
    "region": "Southern Asia",
    "continent": "Asia"
  },
  {
    "city": "Rudsar",
    "country": "Iran",
    "population": 47506,
    "latitude": 37.137612,
    "longitude": 50.288001,
    "region": "Southern Asia",
    "continent": "Asia"
  },
  {
    "city": "Chabahar",
    "country": "Iran",
    "population": 47291,
    "latitude": 25.2919,
    "longitude": 60.643,
    "region": "Southern Asia",
    "continent": "Asia"
  },
  {
    "city": "Omidiyeh",
    "country": "Iran",
    "population": 47048,
    "latitude": 30.7458,
    "longitude": 49.7087,
    "region": "Southern Asia",
    "continent": "Asia"
  },
  {
    "city": "Sarakhs",
    "country": "Iran",
    "population": 46505,
    "latitude": 36.5449,
    "longitude": 61.1577,
    "region": "Southern Asia",
    "continent": "Asia"
  },
  {
    "city": "Dehloran",
    "country": "Iran",
    "population": 46109,
    "latitude": 32.6941,
    "longitude": 47.2679,
    "region": "Southern Asia",
    "continent": "Asia"
  },
  {
    "city": "Talesh",
    "country": "Iran",
    "population": 45309,
    "latitude": 37.8008,
    "longitude": 48.9037,
    "region": "Southern Asia",
    "continent": "Asia"
  },
  {
    "city": "Golpayegan",
    "country": "Iran",
    "population": 44920,
    "latitude": 33.453702,
    "longitude": 50.288361,
    "region": "Southern Asia",
    "continent": "Asia"
  },
  {
    "city": "Sonqor",
    "country": "Iran",
    "population": 43177,
    "latitude": 34.7837,
    "longitude": 47.6004,
    "region": "Southern Asia",
    "continent": "Asia"
  },
  {
    "city": "Baft",
    "country": "Iran",
    "population": 43081,
    "latitude": 29.2331,
    "longitude": 56.6022,
    "region": "Southern Asia",
    "continent": "Asia"
  },
  {
    "city": "Astaneh-ye Ashrafiyeh",
    "country": "Iran",
    "population": 42787,
    "latitude": 37.259615,
    "longitude": 49.944439,
    "region": "Southern Asia",
    "continent": "Asia"
  },
  {
    "city": "Maku",
    "country": "Iran",
    "population": 41517,
    "latitude": 39.2944,
    "longitude": 44.4809,
    "region": "Southern Asia",
    "continent": "Asia"
  },
  {
    "city": "Susangerd",
    "country": "Iran",
    "population": 41447,
    "latitude": 31.5608,
    "longitude": 48.1831,
    "region": "Southern Asia",
    "continent": "Asia"
  },
  {
    "city": "Ravar",
    "country": "Iran",
    "population": 40170,
    "latitude": 31.265625,
    "longitude": 56.80545,
    "region": "Southern Asia",
    "continent": "Asia"
  },
  {
    "city": "Astara",
    "country": "Iran",
    "population": 39067,
    "latitude": 38.4291,
    "longitude": 48.872,
    "region": "Southern Asia",
    "continent": "Asia"
  },
  {
    "city": "Ramhormoz",
    "country": "Iran",
    "population": 38825,
    "latitude": 31.279972,
    "longitude": 49.603511,
    "region": "Southern Asia",
    "continent": "Asia"
  },
  {
    "city": "Javanrud",
    "country": "Iran",
    "population": 38660,
    "latitude": 34.8067,
    "longitude": 46.4913,
    "region": "Southern Asia",
    "continent": "Asia"
  },
  {
    "city": "Sarab",
    "country": "Iran",
    "population": 37771,
    "latitude": 37.9408,
    "longitude": 47.5367,
    "region": "Southern Asia",
    "continent": "Asia"
  },
  {
    "city": "Taybad",
    "country": "Iran",
    "population": 37517,
    "latitude": 34.74,
    "longitude": 60.7756,
    "region": "Southern Asia",
    "continent": "Asia"
  },
  {
    "city": "Tonekabon",
    "country": "Iran",
    "population": 37504,
    "latitude": 36.816259,
    "longitude": 50.873763,
    "region": "Southern Asia",
    "continent": "Asia"
  },
  {
    "city": "Azar Shahr",
    "country": "Iran",
    "population": 37349,
    "latitude": 37.759,
    "longitude": 45.9783,
    "region": "Southern Asia",
    "continent": "Asia"
  },
  {
    "city": "Shadegan",
    "country": "Iran",
    "population": 37224,
    "latitude": 30.649722,
    "longitude": 48.664722,
    "region": "Southern Asia",
    "continent": "Asia"
  },
  {
    "city": "Bardsir",
    "country": "Iran",
    "population": 37195,
    "latitude": 29.92266,
    "longitude": 56.574335,
    "region": "Southern Asia",
    "continent": "Asia"
  },
  {
    "city": "Mahdasht",
    "country": "Iran",
    "population": 37076,
    "latitude": 35.7282,
    "longitude": 50.8134,
    "region": "Southern Asia",
    "continent": "Asia"
  },
  {
    "city": "Mehriz",
    "country": "Iran",
    "population": 36723,
    "latitude": 31.591682,
    "longitude": 54.431775,
    "region": "Southern Asia",
    "continent": "Asia"
  },
  {
    "city": "Eqbaliyeh",
    "country": "Iran",
    "population": 36709,
    "latitude": 35.3022,
    "longitude": 51.5358,
    "region": "Southern Asia",
    "continent": "Asia"
  },
  {
    "city": "Fereydun Kenar",
    "country": "Iran",
    "population": 34100,
    "latitude": 36.686418,
    "longitude": 52.522548,
    "region": "Southern Asia",
    "continent": "Asia"
  },
  {
    "city": "Kalaleh",
    "country": "Iran",
    "population": 33703,
    "latitude": 37.380712,
    "longitude": 55.491639,
    "region": "Southern Asia",
    "continent": "Asia"
  },
  {
    "city": "Delijan",
    "country": "Iran",
    "population": 33510,
    "latitude": 33.9905,
    "longitude": 50.6838,
    "region": "Southern Asia",
    "continent": "Asia"
  },
  {
    "city": "Ramsar",
    "country": "Iran",
    "population": 31976,
    "latitude": 36.902973,
    "longitude": 50.658211,
    "region": "Southern Asia",
    "continent": "Asia"
  },
  {
    "city": "Bafq",
    "country": "Iran",
    "population": 31218,
    "latitude": 31.612833,
    "longitude": 55.410666,
    "region": "Southern Asia",
    "continent": "Asia"
  },
  {
    "city": "Khormuj",
    "country": "Iran",
    "population": 29886,
    "latitude": 28.6543,
    "longitude": 51.38,
    "region": "Southern Asia",
    "continent": "Asia"
  },
  {
    "city": "Damavand",
    "country": "Iran",
    "population": 29147,
    "latitude": 35.717778,
    "longitude": 52.065,
    "region": "Southern Asia",
    "continent": "Asia"
  },
  {
    "city": "Bahar",
    "country": "Iran",
    "population": 28647,
    "latitude": 34.9072,
    "longitude": 48.4414,
    "region": "Southern Asia",
    "continent": "Asia"
  },
  {
    "city": "Juybar",
    "country": "Iran",
    "population": 28406,
    "latitude": 36.641152,
    "longitude": 52.912443,
    "region": "Southern Asia",
    "continent": "Asia"
  },
  {
    "city": "Minudasht",
    "country": "Iran",
    "population": 27988,
    "latitude": 37.228815,
    "longitude": 55.374624,
    "region": "Southern Asia",
    "continent": "Asia"
  },
  {
    "city": "Alashtar",
    "country": "Iran",
    "population": 27703,
    "latitude": 33.8633,
    "longitude": 48.2619,
    "region": "Southern Asia",
    "continent": "Asia"
  },
  {
    "city": "Semirom",
    "country": "Iran",
    "population": 27222,
    "latitude": 31.414183,
    "longitude": 51.569443,
    "region": "Southern Asia",
    "continent": "Asia"
  },
  {
    "city": "Hadishahr",
    "country": "Iran",
    "population": 26226,
    "latitude": 38.8479,
    "longitude": 45.6623,
    "region": "Southern Asia",
    "continent": "Asia"
  },
  {
    "city": "Gerash",
    "country": "Iran",
    "population": 25318,
    "latitude": 27.6652,
    "longitude": 54.1371,
    "region": "Southern Asia",
    "continent": "Asia"
  },
  {
    "city": "Bandar-e Lengeh",
    "country": "Iran",
    "population": 22771,
    "latitude": 26.557918,
    "longitude": 54.880669,
    "region": "Southern Asia",
    "continent": "Asia"
  },
  {
    "city": "Agha Jari",
    "country": "Iran",
    "population": 22019,
    "latitude": 30.7006,
    "longitude": 49.8315,
    "region": "Southern Asia",
    "continent": "Asia"
  },
  {
    "city": "Khonsar",
    "country": "Iran",
    "population": 21148,
    "latitude": 33.220521,
    "longitude": 50.314969,
    "region": "Southern Asia",
    "continent": "Asia"
  },
  {
    "city": "Hendijan",
    "country": "Iran",
    "population": 20703,
    "latitude": 30.2363,
    "longitude": 49.7119,
    "region": "Southern Asia",
    "continent": "Asia"
  },
  {
    "city": "Ramshir",
    "country": "Iran",
    "population": 19456,
    "latitude": 30.8946,
    "longitude": 49.4092,
    "region": "Southern Asia",
    "continent": "Asia"
  },
  {
    "city": "Taft",
    "country": "Iran",
    "population": 19394,
    "latitude": 31.747097,
    "longitude": 54.208815,
    "region": "Southern Asia",
    "continent": "Asia"
  },
  {
    "city": "Abdanan",
    "country": "Iran",
    "population": 19362,
    "latitude": 32.9926,
    "longitude": 47.4198,
    "region": "Southern Asia",
    "continent": "Asia"
  },
  {
    "city": "Paveh",
    "country": "Iran",
    "population": 17779,
    "latitude": 35.0434,
    "longitude": 46.3565,
    "region": "Southern Asia",
    "continent": "Asia"
  },
  {
    "city": "Rudbar",
    "country": "Iran",
    "population": 17085,
    "latitude": 36.8049,
    "longitude": 49.408,
    "region": "Southern Asia",
    "continent": "Asia"
  },
  {
    "city": "Hashtrud",
    "country": "Iran",
    "population": 16888,
    "latitude": 37.4779,
    "longitude": 47.0508,
    "region": "Southern Asia",
    "continent": "Asia"
  },
  {
    "city": "Qeshm",
    "country": "Iran",
    "population": 16691,
    "latitude": 26.9581,
    "longitude": 56.2719,
    "region": "Southern Asia",
    "continent": "Asia"
  },
  {
    "city": "Ardistan",
    "country": "Iran",
    "population": 16058,
    "latitude": 33.3761,
    "longitude": 52.3694,
    "region": "Southern Asia",
    "continent": "Asia"
  },
  {
    "city": "Faridan",
    "country": "Iran",
    "population": 15737,
    "latitude": 32.988707,
    "longitude": 50.41267,
    "region": "Southern Asia",
    "continent": "Asia"
  },
  {
    "city": "Tafresh",
    "country": "Iran",
    "population": 14399,
    "latitude": 34.692,
    "longitude": 50.013,
    "region": "Southern Asia",
    "continent": "Asia"
  },
  {
    "city": "Nur",
    "country": "Iran",
    "population": 13529,
    "latitude": 36.573523,
    "longitude": 52.013823,
    "region": "Southern Asia",
    "continent": "Asia"
  },
  {
    "city": "Mehran",
    "country": "Iran",
    "population": 11831,
    "latitude": 33.1222,
    "longitude": 46.1646,
    "region": "Southern Asia",
    "continent": "Asia"
  },
  {
    "city": "Fereydunshahr",
    "country": "Iran",
    "population": 11562,
    "latitude": 32.940979,
    "longitude": 50.121,
    "region": "Southern Asia",
    "continent": "Asia"
  },
  {
    "city": "Ashtian",
    "country": "Iran",
    "population": 11020,
    "latitude": 34.522,
    "longitude": 50.006,
    "region": "Southern Asia",
    "continent": "Asia"
  }
]
